[
    {
        "id": 2643743,
        "name": "London",
        "country": "GB",
        "coord": {
            "lon": -0.12574,
            "lat": 51.50853
        }
    },
    {
        "id": 5368361,
        "name": "Los Angeles",
        "country": "US",
        "coord": {
            "lon": -118.243683,
            "lat": 34.052231
        }
    },
    {
        "id": 524894,
        "name": "Moskva",
        "country": "RU",
        "coord": {
            "lon": 37.606667,
            "lat": 55.761665
        }
    },
    {
        "id": 6359304,
        "name": "Madrid",
        "country": "ES",
        "coord": {
            "lon": -3.68275,
            "lat": 40.489349
        }
    },
    {
        "id": 5128581,
        "name": "New York",
        "country": "US",
        "coord": {
            "lon": -74.005966,
            "lat": 40.714272
        }
    },
    {
        "id": 2968815,
        "name": "Paris",
        "country": "FR",
        "coord": {
            "lon": 2.3486,
            "lat": 48.853401
        }
    },
    {
        "id": 2147714,
        "name": "Sydney",
        "country": "AU",
        "coord": {
            "lon": 151.207321,
            "lat": -33.867851
        }
    },
    {
        "id": 1850147,
        "name": "Tokyo",
        "country": "JP",
        "coord": {
            "lon": 139.691711,
            "lat": 35.689499
        }
    },
    {
        "id": 2950159,
        "name": "Berlin",
        "country": "DE",
        "coord": {
            "lon": 13.41053,
            "lat": 52.524368
        }
    },
    {
        "id": 281184,
        "name": "Jerusalem",
        "country": "IL",
        "coord": {
            "lon": 35.216331,
            "lat": 31.769039
        }
    },
    {
        "id": 293397,
        "name": "Tel Aviv",
        "country": "IL",
        "coord": {
            "lon": 34.780571,
            "lat": 32.080879
        }
    }
]
